City,Cloudiness,Country,Date,Humidity,Lat,Lng,Max Temp,Wind Speed
Kisi,79,NG,06-17-2020,63,9.08,3.85,85.06,6.35
Ushuaia,40,AR,06-17-2020,69,-54.8,-68.3,39.2,3.36
Kapaa,20,US,06-17-2020,78,22.08,-159.32,75.2,12.75
Broome,1,US,06-17-2020,43,42.25,-75.83,77.0,5.82
Albany,0,US,06-17-2020,36,42.6,-73.97,82.0,2.98
Puerto del Rosario,20,ES,06-17-2020,69,28.5,-13.86,77.0,5.82
Hithadhoo,50,MV,06-17-2020,72,-0.6,73.08,84.9,6.62
Viedma,99,AR,06-17-2020,53,-40.81,-63.0,57.67,7.65
Zaoyang,100,CN,06-17-2020,94,32.13,112.75,66.58,10.54
Ribeira Grande,75,PT,06-17-2020,64,38.52,-28.7,71.6,10.29
Avarua,17,CK,06-17-2020,64,-21.21,-159.78,71.6,6.93
Port Alfred,0,ZA,06-17-2020,73,-33.59,26.89,63.34,15.97
Wāshīm,78,IN,06-17-2020,69,20.1,77.15,82.06,16.37
Vaini,20,TO,06-17-2020,78,-21.2,-175.2,71.6,10.29
Camacha,75,PT,06-17-2020,88,33.08,-16.33,66.2,19.46
Chokurdakh,32,RU,06-17-2020,52,70.63,147.92,62.98,10.07
Mahébourg,75,MU,06-17-2020,100,-20.41,57.7,68.0,18.34
Hobart,0,AU,06-17-2020,82,-42.88,147.33,39.2,9.17
Yulara,0,AU,06-17-2020,36,-25.24,130.99,48.2,6.93
Mataura,97,NZ,06-17-2020,83,-46.19,168.86,39.0,3.0
Rikitea,61,PF,06-17-2020,81,-23.12,-134.97,75.07,15.86
Punta Arenas,0,CL,06-17-2020,86,-53.15,-70.92,35.01,6.93
Itatiba,40,BR,06-17-2020,47,-23.01,-46.84,75.2,4.7
Mirandela,35,PT,06-17-2020,10,41.49,-7.19,66.0,1.01
Caruray,20,PH,06-17-2020,83,10.31,119.01,82.4,4.7
Asău,97,RO,06-17-2020,68,46.43,26.4,72.0,1.92
Ponta do Sol,40,PT,06-17-2020,78,32.67,-17.1,72.0,11.41
Saint-Philippe,75,RE,06-17-2020,88,-21.36,55.77,68.0,25.28
Meadow Lake,20,US,06-17-2020,22,34.8,-106.54,84.0,12.75
Busselton,38,AU,06-17-2020,49,-33.65,115.33,57.99,21.68
Nouadhibou,0,MR,06-17-2020,27,20.93,-17.03,98.6,28.86
Thompson,90,CA,06-17-2020,93,55.74,-97.86,41.0,19.46
Qaanaaq,58,GL,06-17-2020,92,77.48,-69.36,33.01,6.78
Half Moon Bay,1,US,06-17-2020,72,37.46,-122.43,68.0,14.99
‘Āhuimanu,20,US,06-17-2020,46,21.44,-157.84,89.6,8.05
Tuktoyaktuk,90,CA,06-17-2020,87,69.45,-133.04,46.4,10.29
East London,0,ZA,06-17-2020,70,-33.02,27.91,65.07,15.99
Sangar,0,RU,06-17-2020,59,63.92,127.47,59.52,7.27
Jamestown,1,US,06-17-2020,49,42.1,-79.24,77.0,5.82
São Mateus do Sul,86,BR,06-17-2020,64,-25.87,-50.38,69.04,5.41
Quesnel,75,CA,06-17-2020,58,53.0,-122.5,59.0,2.24
Arlit,0,NE,06-17-2020,7,18.74,7.39,106.48,18.12
Hermanus,0,ZA,06-17-2020,32,-34.42,19.23,66.99,1.01
Cape Town,0,ZA,06-17-2020,45,-33.93,18.42,62.6,4.7
Bull Savanna,100,JM,06-17-2020,64,17.89,-77.59,84.24,13.82
Omboué,86,GA,06-17-2020,82,-1.57,9.26,75.72,9.31
Saint Anthony,1,US,06-17-2020,45,45.02,-93.22,82.4,13.87
Karratha,0,AU,06-17-2020,76,-20.74,116.85,68.83,0.36
Kibre Mengist,88,ET,06-17-2020,90,5.88,38.98,61.68,3.09
Butaritari,6,KI,06-17-2020,76,3.07,172.79,83.08,15.57
Spirit River,75,CA,06-17-2020,67,55.78,-118.84,59.0,4.7
Chapais,40,CA,06-17-2020,47,49.78,-74.85,78.8,12.75
Cartagena,40,CO,06-17-2020,66,10.4,-75.51,89.6,4.7
Simpang,89,ID,06-17-2020,94,-1.27,104.08,75.07,1.79
Esperance,75,AU,06-17-2020,93,-33.87,121.9,59.0,16.11
Kortkeros,20,RU,06-17-2020,44,61.81,51.58,57.2,4.47
Bluff,48,NZ,06-17-2020,83,-46.6,168.33,39.0,3.0
Morgan City,1,US,06-17-2020,58,29.7,-91.21,86.0,5.82
Lavrentiya,63,RU,06-17-2020,72,65.58,-171.0,45.81,1.07
Hong Kong,0,HK,06-17-2020,74,22.29,114.16,84.0,5.99
Conceição do Araguaia,17,BR,06-17-2020,45,-8.26,-49.26,87.8,11.41
Provideniya,1,RU,06-17-2020,59,64.38,-173.3,53.69,2.01
Bengkulu,87,ID,06-17-2020,86,-3.8,102.27,78.03,4.56
Kokkola,71,FI,06-17-2020,50,63.84,23.13,75.2,6.93
Dingle,100,PH,06-17-2020,80,11.0,122.67,78.37,3.27
George Town,20,MY,06-17-2020,88,5.41,100.34,82.4,3.36
Comodoro Rivadavia,72,AR,06-17-2020,71,-45.87,-67.5,50.0,3.18
Andreiaşu de Jos,90,RO,06-17-2020,73,45.75,26.83,71.6,14.99
Saskylakh,0,RU,06-17-2020,63,71.92,114.08,53.73,9.15
Maputo,90,MZ,06-17-2020,93,-25.97,32.59,61.0,12.75
Leshukonskoye,77,RU,06-17-2020,48,64.9,45.76,53.22,9.33
Nome,90,US,06-17-2020,76,64.5,-165.41,61.0,2.86
Norman Wells,20,CA,06-17-2020,59,65.28,-126.83,66.2,10.29
Khairāgarh,100,IN,06-17-2020,20,26.95,77.82,100.67,5.84
Banda Aceh,100,ID,06-17-2020,78,5.56,95.32,81.97,4.81
Hauterive,75,FR,06-17-2020,52,46.09,3.45,66.2,10.29
Yumen,16,CN,06-17-2020,16,40.28,97.2,76.35,8.72
New Norfolk,0,AU,06-17-2020,89,-42.78,147.06,35.01,2.55
Yellowknife,40,CA,06-17-2020,57,62.46,-114.35,54.0,8.05
Nanortalik,36,GL,06-17-2020,76,60.14,-45.24,39.34,7.96
Barrow,75,US,06-17-2020,80,71.29,-156.79,37.4,12.75
Laas,75,IT,06-17-2020,93,46.62,10.7,64.0,3.36
Port Elizabeth,0,ZA,06-17-2020,82,-33.92,25.57,60.8,6.93
Bathsheba,75,BB,06-17-2020,70,13.22,-59.52,86.0,21.92
Nikolskoye,40,RU,06-17-2020,54,59.7,30.79,78.8,8.95
Atuona,63,PF,06-17-2020,75,-9.8,-139.03,79.93,15.97
Sechura,57,PE,06-17-2020,63,-5.56,-80.82,72.3,9.71
Praia,1,CV,06-17-2020,62,14.92,-23.51,86.0,4.7
Sarangani,100,PH,06-17-2020,67,5.4,125.46,84.69,4.38
Constitución,99,CL,06-17-2020,85,-35.33,-72.42,53.69,9.44
Vestmannaeyjar,88,IS,06-17-2020,71,63.44,-20.27,50.0,10.29
Padang,67,ID,06-17-2020,80,-0.95,100.35,78.82,4.43
Masvingo,7,ZW,06-17-2020,80,-20.06,30.83,51.22,5.88
Buchanan,75,LR,06-17-2020,83,5.88,-10.05,84.2,11.41
Lima,90,PE,06-17-2020,82,-12.04,-77.03,64.4,9.17
Clearwater,40,US,06-17-2020,58,27.97,-82.8,86.0,5.82
Bilibino,99,RU,06-17-2020,49,68.05,166.44,63.63,3.94
Leningradskiy,77,RU,06-17-2020,64,69.38,178.42,43.84,8.43
Castro,81,BR,06-17-2020,64,-24.79,-50.01,69.08,8.72
Mar del Plata,90,AR,06-17-2020,93,-38.0,-57.56,64.4,16.11
Bethel,1,US,06-17-2020,49,41.37,-73.41,75.99,9.17
Los Llanos de Aridane,40,ES,06-17-2020,69,28.66,-17.92,78.8,8.05
Tāybād,0,IR,06-17-2020,14,34.74,60.78,86.68,16.69
Atar,0,MR,06-17-2020,11,20.52,-13.05,107.4,25.86
Severo-Kuril'sk,100,RU,06-17-2020,91,50.68,156.12,42.3,2.82
Southbridge,0,US,06-17-2020,34,42.08,-72.03,78.01,2.3
Juneau,90,US,06-17-2020,76,58.3,-134.42,54.0,11.41
Diffa,40,NE,06-17-2020,15,13.32,12.61,104.92,3.53
Prome,100,MM,06-17-2020,94,18.82,95.22,75.58,7.63
Carnarvon,90,AU,06-17-2020,100,-24.87,113.63,69.8,13.87
Poum,73,NC,06-17-2020,76,-20.23,164.02,73.47,14.63
Lixouri,20,GR,06-17-2020,61,38.2,20.43,77.0,10.29
Nelson Bay,90,AU,06-17-2020,63,-32.72,152.15,62.01,14.99
Coquimbo,75,CL,06-17-2020,76,-29.95,-71.34,53.6,14.99
Honiara,40,SB,06-17-2020,100,-9.43,159.95,75.2,2.24
Bairiki Village,20,KI,06-17-2020,78,1.33,172.98,80.6,5.82
Longyearbyen,20,SJ,06-17-2020,77,78.22,15.64,39.2,8.05
Sayyan,34,YE,06-17-2020,23,15.17,44.32,74.16,1.63
Ilulissat,75,GL,06-17-2020,78,69.22,-51.1,39.2,6.93
Kimbe,95,PG,06-17-2020,88,-5.55,150.14,75.27,5.3
Point Pedro,71,LK,06-17-2020,80,9.82,80.23,84.2,20.15
Mwinilunga,0,ZM,06-17-2020,45,-11.74,24.43,63.91,5.37
Suntar,100,RU,06-17-2020,93,62.14,117.63,50.83,5.64
Rome,1,US,06-17-2020,36,43.21,-75.46,80.6,2.42
Hohhot,20,CN,06-17-2020,72,40.81,111.65,59.0,6.71
Srednekolymsk,92,RU,06-17-2020,41,67.45,153.68,70.23,4.94
Aklavik,75,CA,06-17-2020,76,68.22,-135.01,53.6,8.05
Parry Sound,2,CA,06-17-2020,34,45.35,-80.03,78.01,1.01
Mount Gambier,75,AU,06-17-2020,87,-37.83,140.77,44.6,8.05
Santoña,40,ES,06-17-2020,72,43.44,-3.46,66.0,6.93
La Ronge,90,CA,06-17-2020,76,55.1,-105.28,48.2,17.22
Asten,100,NL,06-17-2020,61,51.4,5.75,75.99,4.0
Dunmore East,75,IE,06-17-2020,87,52.15,-6.99,60.8,4.7
Saint Joseph,1,US,06-17-2020,58,39.77,-94.85,82.4,12.75
Bubaque,53,GW,06-17-2020,87,11.28,-15.83,80.22,14.25
Meïganga,79,CM,06-17-2020,90,6.52,14.3,74.03,3.53
São João da Barra,75,BR,06-17-2020,60,-21.64,-41.05,77.0,14.99
Kencong,52,ID,06-17-2020,90,-8.28,113.37,75.79,2.3
Okha,100,RU,06-17-2020,97,53.57,142.95,39.04,9.42
Sterling,75,US,06-17-2020,68,39.01,-77.43,69.8,9.17
Mildura,90,AU,06-17-2020,71,-34.2,142.15,54.0,5.82
Port Blair,100,IN,06-17-2020,81,11.67,92.75,83.61,11.12
Ancud,40,CL,06-17-2020,87,-41.87,-73.82,54.0,11.41
Khatanga,100,RU,06-17-2020,73,71.97,102.5,50.56,1.54
Zhangjiakou Shi Xuanhua Qu,99,CN,06-17-2020,46,40.61,115.04,73.0,4.21
Chardara,0,KZ,06-17-2020,29,41.25,67.97,74.8,11.43
Vostok,100,RU,06-17-2020,100,46.49,135.88,45.48,1.66
Chui,100,UY,06-17-2020,69,-33.7,-53.46,71.64,15.1
Tiznit Province,58,MA,06-17-2020,32,29.58,-9.5,80.74,9.57
Tromsø,0,NO,06-17-2020,45,69.65,18.96,62.6,9.17
Hilo,75,US,06-17-2020,88,19.73,-155.09,69.8,5.82
Stolin,94,BY,06-17-2020,76,51.89,26.85,75.2,7.49
Cherskiy,84,RU,06-17-2020,47,68.75,161.3,67.44,1.36
Ormara,1,PK,06-17-2020,84,25.21,64.64,85.42,9.01
Ballina,40,AU,06-17-2020,82,-28.87,153.57,57.2,6.93
Ostrovnoy,71,RU,06-17-2020,69,68.05,39.51,44.28,7.25
Mnogovershinnyy,51,RU,06-17-2020,90,53.94,139.92,37.58,2.71
Saint Paul Harbor,90,US,06-17-2020,87,57.79,-152.41,50.0,23.04
Salinópolis,9,BR,06-17-2020,63,-0.61,-47.36,86.5,10.42
Fatehpur,100,IN,06-17-2020,56,25.93,80.8,90.91,6.22
Benguela,0,AO,06-17-2020,53,-12.58,13.41,79.27,3.42
Eldorado,0,BR,06-17-2020,58,-23.79,-54.28,78.06,14.88
Werda,12,BW,06-17-2020,42,-25.27,23.28,58.48,5.06
Labuhan,68,ID,06-17-2020,81,-6.88,112.21,79.65,6.69
Toronto,1,CA,06-17-2020,56,43.7,-79.42,78.01,9.17
San Patricio,20,MX,06-17-2020,74,19.22,-104.7,86.0,6.93
Dali,92,CN,06-17-2020,83,25.7,100.18,66.02,5.73
Ukiah,1,US,06-17-2020,55,39.15,-123.21,63.0,1.81
Santa Maria,1,BR,06-17-2020,57,-29.68,-53.81,77.0,12.75
Bānsgāon,100,IN,06-17-2020,73,26.56,83.35,86.67,7.56
Doha,21,QA,06-17-2020,18,25.29,51.53,102.2,16.11
Lagunas,0,PE,06-17-2020,53,-5.23,-75.68,89.15,2.77
Urdoma,0,RU,06-17-2020,43,61.75,48.54,58.59,4.76
Bambous Virieux,75,MU,06-17-2020,100,-20.34,57.76,69.01,18.34
Cabo San Lucas,5,MX,06-17-2020,48,22.89,-109.91,84.2,6.93
Culpeper,90,US,06-17-2020,77,38.5,-77.97,69.8,6.93
Bāfq,1,IR,06-17-2020,10,31.61,55.41,93.42,11.45
Cabedelo,40,BR,06-17-2020,70,-6.98,-34.83,84.2,20.8
Maceió,40,BR,06-17-2020,65,-9.67,-35.74,82.4,18.34
Todos Santos,0,MX,06-17-2020,77,23.45,-110.22,71.01,1.99
Hofn,0,IS,06-17-2020,64,64.25,-15.21,49.91,7.61
Huaiyuan,100,CN,06-17-2020,93,32.97,117.2,68.88,5.06
Djibouti,100,DJ,06-17-2020,22,11.5,42.5,98.08,9.75
Sovetskaya Gavan',100,RU,06-17-2020,90,48.97,140.29,46.53,2.89
Airai,7,TL,06-17-2020,95,-8.93,125.41,55.62,4.81
Fairbanks,90,US,06-17-2020,67,64.84,-147.72,64.0,3.36
Tiksi,100,RU,06-17-2020,92,71.69,128.87,48.24,3.91
Gizo Government Station,99,SB,06-17-2020,78,-8.1,156.84,82.31,14.34
Mīnāb,0,IR,06-17-2020,75,27.15,57.08,93.2,4.7
Hasaki,75,JP,06-17-2020,88,35.73,140.83,66.2,3.36
Bilma,1,NE,06-17-2020,7,18.69,12.92,106.45,3.06
Marihatag,100,PH,06-17-2020,84,8.79,126.3,79.0,3.74
Jennings,20,US,06-17-2020,42,38.72,-90.26,81.0,4.7
Brookhaven,27,US,06-17-2020,66,31.58,-90.44,84.0,1.01
Verāval,62,IN,06-17-2020,80,20.9,70.37,85.39,11.1
Malmesbury,0,ZA,06-17-2020,45,-33.46,18.73,62.6,4.7
Coyhaique,75,CL,06-17-2020,100,-45.58,-72.07,37.4,4.7
Decatur,20,US,06-17-2020,42,39.84,-88.95,80.6,4.7
Luanda,20,AO,06-17-2020,78,-8.84,13.23,77.0,10.29
Pangnirtung,90,CA,06-17-2020,74,66.15,-65.71,37.4,16.11
Tūkrah,0,LY,06-17-2020,72,32.53,20.58,74.41,12.39
Riyadh,10,SA,06-17-2020,8,24.69,46.72,107.6,13.87
Taicheng,93,CN,06-17-2020,78,38.73,113.23,61.92,3.11
Vila Franca do Campo,40,PT,06-17-2020,72,37.72,-25.43,68.0,20.8
Kavaratti,100,IN,06-17-2020,78,10.57,72.64,85.24,18.52
Rognan,73,NO,06-17-2020,43,67.1,15.39,70.0,10.29
Bredasdorp,0,ZA,06-17-2020,72,-34.53,20.04,60.8,3.31
Bulgan,100,MN,06-17-2020,71,48.81,103.53,54.23,2.75
Zabul Province,46,AF,06-17-2020,15,32.25,67.25,79.41,8.48
Villa Carlos Paz,44,AR,06-17-2020,68,-31.42,-64.5,72.0,9.17
Tautira,75,PF,06-17-2020,88,-17.73,-149.15,77.0,9.17
Iporá,0,BR,06-17-2020,45,-16.44,-51.12,81.12,9.75
Pisco,16,PE,06-17-2020,68,-13.7,-76.22,70.0,10.29
Turan,20,VN,06-17-2020,83,16.07,108.22,82.4,2.24
Saint George,1,US,06-17-2020,29,37.1,-113.58,77.0,10.29
Saldanha,0,ZA,06-17-2020,28,-33.01,17.94,73.4,2.24
Marsh Harbour,6,BS,06-17-2020,76,26.54,-77.06,79.66,10.63
Souillac,75,MU,06-17-2020,100,-20.52,57.52,68.0,18.34
Pevek,86,RU,06-17-2020,66,69.7,170.31,43.92,5.19
Dikson,92,RU,06-17-2020,93,73.51,80.55,32.68,2.21
Chancay,90,PE,06-17-2020,72,-11.57,-77.27,66.2,10.29
Show Low,1,US,06-17-2020,11,34.25,-110.03,73.4,25.28
Cidreira,48,BR,06-17-2020,74,-30.18,-50.21,68.25,9.35
Lompoc,0,US,06-17-2020,67,34.64,-120.46,64.99,3.15
Shingū,100,JP,06-17-2020,74,33.73,135.98,67.77,2.37
Geraldton,90,AU,06-17-2020,68,-28.77,114.6,66.2,17.22
Merrill,1,US,06-17-2020,47,45.18,-89.68,78.8,12.75
Port-Gentil,75,GA,06-17-2020,83,-0.72,8.78,77.0,11.41
Paracuru,0,BR,06-17-2020,59,-3.41,-39.03,84.99,3.0
Biak,72,ID,06-17-2020,84,-0.91,122.88,77.47,6.31
Colombo,40,LK,06-17-2020,83,6.93,79.85,84.2,11.41
Springdale,1,US,06-17-2020,61,36.19,-94.13,81.0,8.05
Ihosy,16,MG,06-17-2020,82,-22.4,46.12,55.81,14.81
Namatanai,13,PG,06-17-2020,81,-3.67,152.43,78.93,6.26
Torbay,75,CA,06-17-2020,37,47.67,-52.73,75.99,11.41
Iqaluit,75,CA,06-17-2020,60,63.75,-68.51,41.0,11.41
Chara,100,RU,06-17-2020,85,56.91,118.26,52.34,3.31
Görele,20,TR,06-17-2020,73,41.03,39.0,77.0,4.7
San Cristobal,75,VE,06-17-2020,69,7.77,-72.22,80.6,12.75
Hirara,96,JP,06-17-2020,83,24.8,125.28,83.86,19.1
Yangi Marg`ilon,99,UZ,06-17-2020,33,40.43,71.72,75.2,6.93
Qaqortoq,75,GL,06-17-2020,61,60.72,-46.03,46.4,6.93
Lumby,1,CA,06-17-2020,59,50.25,-118.97,62.6,4.7
Mount Isa,0,AU,06-17-2020,40,-20.73,139.5,68.0,10.29
Road Town,40,VG,06-17-2020,70,18.42,-64.62,87.8,9.17
Sioux Lookout,20,CA,06-17-2020,51,50.1,-91.92,82.4,14.99
Hobyo,91,SO,06-17-2020,69,5.35,48.53,80.85,27.96
Fortuna,40,US,06-17-2020,82,40.6,-124.16,57.99,4.7
Batagay,26,RU,06-17-2020,47,67.63,134.63,63.52,5.44
Oistins,75,BB,06-17-2020,70,13.07,-59.53,86.0,21.92
Baykit,70,RU,06-17-2020,66,61.67,96.37,53.76,2.59
Ananindeua,75,BR,06-17-2020,55,-1.37,-48.37,89.6,11.41
Muisne,75,EC,06-17-2020,83,0.6,-80.03,82.4,6.93
Puro,100,PH,06-17-2020,80,12.48,123.38,82.02,7.87
Olafsvik,94,IS,06-17-2020,77,64.89,-23.71,48.31,7.09
Makkah al Mukarramah,0,SA,06-17-2020,15,21.43,39.83,97.32,11.45
Havøysund,66,NO,06-17-2020,81,71.0,24.66,51.8,8.05
Adzopé,96,CI,06-17-2020,87,6.11,-3.86,80.13,6.13
Nyurba,98,RU,06-17-2020,84,63.28,118.33,51.93,7.67
Korla,28,CN,06-17-2020,47,41.76,86.15,82.99,3.0
Blagoyevo,52,RU,06-17-2020,50,63.37,47.92,54.84,7.99
Mahon,40,ES,06-17-2020,56,39.89,4.27,71.6,9.17
Salalah,2,OM,06-17-2020,79,17.02,54.09,86.0,9.17
Alferrarede,0,PT,06-17-2020,50,39.48,-8.17,78.01,5.01
Lebu,100,CL,06-17-2020,89,-37.62,-73.65,52.97,7.25
Shubarkuduk,0,KZ,06-17-2020,34,49.14,56.49,75.72,9.46
Nassau,90,US,06-17-2020,53,40.75,-73.58,77.0,10.29
Bocas del Toro,100,PA,06-17-2020,71,9.33,-82.25,73.0,2.33
Luocheng,100,CN,06-17-2020,65,29.38,104.03,73.67,1.34
Tasiilaq,75,GL,06-17-2020,80,65.61,-37.64,39.2,28.86
Necochea,100,AR,06-17-2020,99,-38.55,-58.74,62.01,8.99
Kavieng,71,PG,06-17-2020,72,-2.57,150.8,82.63,4.7
Prachin Buri,100,TH,06-17-2020,93,14.05,101.37,76.6,0.92
Egvekinot,3,RU,06-17-2020,49,66.32,-179.17,54.64,1.7
Vanimo,63,PG,06-17-2020,83,-2.67,141.3,77.04,3.49
Price,40,US,06-17-2020,21,39.6,-110.81,60.8,11.41
Lososina,100,RU,06-17-2020,88,49.0,140.31,47.16,2.93
Puerto Ayora,75,EC,06-17-2020,88,-0.74,-90.35,72.0,9.17
Zhigansk,91,RU,06-17-2020,94,66.77,123.37,51.51,10.8
Lázaro Cárdenas,0,MX,06-17-2020,53,17.96,-102.2,88.61,2.57
Dunedin,100,NZ,06-17-2020,87,-45.87,170.5,43.0,8.01
Djambala,97,CG,06-17-2020,59,-2.54,14.75,80.47,4.23
Itarema,8,BR,06-17-2020,62,-2.92,-39.92,85.59,14.05
Tilichiki,11,RU,06-17-2020,91,60.47,166.1,40.96,1.63
Lufilufi,31,WS,06-17-2020,66,-13.87,-171.6,84.0,11.99
Imbituba,75,BR,06-17-2020,73,-28.24,-48.67,73.4,18.34
Upernavik,0,GL,06-17-2020,90,72.79,-56.15,33.66,4.05
Naze,20,JP,06-17-2020,100,28.37,129.48,78.8,9.17
Laguna,1,US,06-17-2020,33,38.42,-121.42,71.6,18.34
Puerto Escondido,40,MX,06-17-2020,70,15.85,-97.07,86.0,6.93
Christchurch,100,NZ,06-17-2020,93,-43.53,172.63,48.0,11.41
Tinaquillo,54,VE,06-17-2020,65,9.92,-68.3,82.69,4.52
Zaysan,100,KZ,06-17-2020,73,47.47,84.87,63.61,6.08
Akdepe,32,TM,06-17-2020,24,42.06,59.38,80.6,4.7
Sorong,100,ID,06-17-2020,83,-0.88,131.25,80.2,9.42
Kamaishi,0,JP,06-17-2020,79,39.27,141.88,60.48,3.22
Purpe,100,RU,06-17-2020,68,64.48,76.69,48.0,11.03
Kahului,20,US,06-17-2020,73,20.89,-156.47,75.2,10.29
Tadine,20,NC,06-17-2020,84,-21.55,167.88,71.47,11.16
Vidim,13,RU,06-17-2020,68,56.41,103.11,46.67,2.35
North Bend,1,US,06-17-2020,82,43.41,-124.22,57.2,6.13
Anito,100,PH,06-17-2020,85,12.45,125.29,80.22,2.95
Srandakan,66,ID,06-17-2020,86,-7.94,110.25,78.24,10.49
Maniitsoq,90,GL,06-17-2020,88,65.42,-52.9,35.04,2.64
Kathmandu,75,NP,06-17-2020,94,27.72,85.32,71.6,5.82
Mercedes,61,AR,06-17-2020,63,-34.65,-59.43,78.01,18.01
Byron Bay,40,AU,06-17-2020,82,-28.65,153.62,57.2,6.93
Caravelas,80,BR,06-17-2020,62,-17.71,-39.25,76.06,12.15
Najrān,20,SA,06-17-2020,11,17.49,44.13,95.0,6.93
Komsomolets,27,KZ,06-17-2020,64,53.75,62.07,67.5,6.85
Yar-Sale,66,RU,06-17-2020,56,66.83,70.83,45.7,13.2
Tevaitoa,100,PF,06-17-2020,78,-16.78,-151.5,80.98,9.28
Acapulco de Juárez,5,MX,06-17-2020,70,16.86,-99.89,87.8,5.82
Plácido de Castro,0,BR,06-17-2020,41,-10.34,-67.19,91.98,0.58
Zhicheng,100,CN,06-17-2020,95,30.3,111.5,70.0,3.42
Talnakh,40,RU,06-17-2020,86,69.49,88.4,39.2,8.95
Santa Cruz Cabrália,75,BR,06-17-2020,69,-16.28,-39.02,77.0,10.29
Sitka,90,US,06-17-2020,81,57.05,-135.33,51.8,3.4
Nizhniy Kuranakh,63,RU,06-17-2020,61,58.84,125.49,57.72,4.38
Touros,75,BR,06-17-2020,83,-5.2,-35.46,78.8,18.34
Rantepao,63,ID,06-17-2020,90,-2.97,119.9,66.99,1.86
Vila Velha,40,BR,06-17-2020,88,-20.33,-40.29,69.8,4.7
Katsuura,75,JP,06-17-2020,83,35.13,140.3,71.6,6.93
Barillas,100,GT,06-17-2020,75,15.8,-91.32,68.81,1.99
São Filipe,6,CV,06-17-2020,82,14.9,-24.5,75.9,11.63
Mount Darwin,73,ZW,06-17-2020,60,-16.77,31.58,60.06,2.64
Port Macquarie,90,AU,06-17-2020,87,-31.43,152.92,60.8,6.93
Baijiantan,99,CN,06-17-2020,31,45.63,85.18,80.19,31.68
Oktyabr'skoye,75,RU,06-17-2020,88,43.06,44.74,69.01,4.47
Bandarbeyla,100,SO,06-17-2020,54,9.49,50.81,86.41,27.07
Pochutla,20,MX,06-17-2020,59,15.74,-96.47,89.6,5.44
Alice Springs,0,AU,06-17-2020,41,-23.7,133.88,42.8,5.82
Lorengau,6,PG,06-17-2020,78,-2.02,147.27,80.42,5.35
Adrar,0,MR,06-17-2020,12,20.5,-10.07,105.87,25.12
Scarborough,98,GB,06-17-2020,89,54.28,-0.4,62.01,1.01
Ust-Kuyga,75,RU,06-17-2020,58,70.02,135.6,65.97,5.7
Arraial do Cabo,40,BR,06-17-2020,57,-22.97,-42.03,77.0,10.29
Bozeman,90,US,06-17-2020,93,45.68,-111.04,48.2,8.05
Wagga Wagga,17,AU,06-17-2020,81,-35.12,147.37,50.0,8.05
Clyde River,90,CA,06-17-2020,73,70.47,-68.59,35.6,10.29
Dhārchula,39,IN,06-17-2020,67,29.85,80.53,72.57,1.77
Cayenne,76,GF,06-17-2020,66,4.93,-52.33,86.0,8.05
Kloulklubed,75,PW,06-17-2020,88,7.04,134.26,78.8,8.14
Auki,98,SB,06-17-2020,84,-8.77,160.7,78.15,3.98
Kirovskiy,90,RU,06-17-2020,95,45.09,133.51,51.42,1.05
Khani,40,GE,06-17-2020,54,41.96,42.96,80.6,10.29
Aloleng,100,PH,06-17-2020,75,16.13,119.78,83.23,2.98
Guerrero Negro,75,MX,06-17-2020,68,27.98,-114.06,67.41,13.13
Fukuechō,100,JP,06-17-2020,89,32.69,128.84,70.7,12.66
Ketchikan,75,US,06-17-2020,71,55.34,-131.65,55.4,8.05
Sonoma,1,US,06-17-2020,40,38.55,-122.9,69.8,10.29
Kimovsk,16,RU,06-17-2020,75,53.97,38.53,75.0,3.09
Katobu,44,ID,06-17-2020,89,-4.94,122.53,75.56,6.08
Anadyr,69,RU,06-17-2020,71,64.75,177.48,51.8,4.47
Soroca,64,MD,06-17-2020,75,48.16,28.3,72.0,7.27
Koungou,0,YT,06-17-2020,69,-12.73,45.2,78.8,14.99
Manggar,85,ID,06-17-2020,82,-2.88,108.27,80.92,11.32
Bako,44,ET,06-17-2020,91,5.78,36.57,65.1,2.35
Krasnoarmeysk,0,RU,06-17-2020,52,51.02,45.7,71.19,4.32
Umarizal,41,BR,06-17-2020,51,-5.99,-37.81,87.1,12.48
Kinablangan,100,PH,06-17-2020,82,7.69,126.55,79.84,6.35
Ust'-Karsk,83,RU,06-17-2020,84,52.7,118.81,57.79,2.84
Hambantota,5,LK,06-17-2020,89,6.12,81.12,84.2,11.41
Kalmunai,83,LK,06-17-2020,71,7.42,81.82,84.54,5.1
Eureka,0,US,06-17-2020,8,40.8,-124.16,60.01,1.01
Krasnosel'kup,100,RU,06-17-2020,70,65.7,82.47,44.49,1.16
Zahesi,40,GE,06-17-2020,50,41.82,44.75,78.8,4.7
Portel,3,BR,06-17-2020,53,-1.94,-50.82,89.65,5.75
Kalaiya,94,NP,06-17-2020,82,27.03,85.0,82.67,8.66
Amazar,5,RU,06-17-2020,64,53.86,120.88,53.26,4.34
Zaraza,12,VE,06-17-2020,60,9.35,-65.32,88.54,3.62
Quatre Cocos,75,MU,06-17-2020,100,-20.21,57.76,69.01,18.34
Oranjemund,4,NA,06-17-2020,26,-28.55,16.43,72.16,14.09
Fallon,20,US,06-17-2020,36,39.47,-118.78,55.4,10.29
Beloha,0,MG,06-17-2020,75,-25.17,45.05,63.59,12.66
General Salgado,0,BR,06-17-2020,48,-20.65,-50.36,79.5,12.37
Kashan,23,IR,06-17-2020,10,33.98,51.44,96.8,17.16
Kirakira,94,SB,06-17-2020,83,-10.45,161.92,79.21,8.41
Koslan,72,RU,06-17-2020,58,63.46,48.9,52.23,8.12
Conchal,20,BR,06-17-2020,60,-22.33,-47.17,71.6,8.05
Kargat,0,RU,06-17-2020,77,55.2,80.28,53.4,4.79
Frontera,25,MX,06-17-2020,54,26.93,-101.45,86.0,1.01
Sinnamary,64,GF,06-17-2020,77,5.38,-52.95,82.81,3.49
Medvezh'yegorsk,0,RU,06-17-2020,39,62.92,34.47,67.39,4.92
Altay,82,CN,06-17-2020,53,47.87,88.12,64.47,1.66
Marsabit,23,KE,06-17-2020,52,2.33,37.99,72.1,14.88
Nefteyugansk,40,RU,06-17-2020,87,61.1,72.6,50.0,6.71
Grindavik,75,IS,06-17-2020,71,63.84,-22.43,50.0,11.41
Rocha,100,UY,06-17-2020,69,-34.48,-54.33,73.71,18.68
Fare,100,PF,06-17-2020,79,-16.7,-151.02,80.73,11.39
Ji’an,70,CN,06-17-2020,70,27.12,114.98,82.17,11.43
São Sebastião,19,BR,06-17-2020,71,-23.76,-45.41,72.75,9.19
Pozo Colorado,0,PY,06-17-2020,40,-23.49,-58.8,85.57,18.84
Alyangula,0,AU,06-17-2020,100,-13.85,136.42,68.0,10.11
Lüderitz,0,NA,06-17-2020,10,-26.65,15.16,87.8,8.05
Mayo,75,US,06-17-2020,82,38.89,-76.51,68.0,9.17
Trairi,0,BR,06-17-2020,62,-3.28,-39.27,85.87,12.44
Maxixe,75,MZ,06-17-2020,100,-23.86,35.35,64.4,9.17
Brewster,1,US,06-17-2020,49,41.4,-73.62,77.0,9.17
Lieksa,0,FI,06-17-2020,41,63.32,30.02,68.95,5.7
South Lake Tahoe,1,US,06-17-2020,43,38.93,-119.98,53.6,3.36
Karasburg,0,NA,06-17-2020,37,-28.02,18.75,58.17,12.5
Vikulovo,92,RU,06-17-2020,96,56.82,70.61,58.87,6.78
Bhaderwah,0,IN,06-17-2020,30,32.98,75.72,68.94,3.29
Angoche,44,MZ,06-17-2020,80,-16.23,39.91,72.34,11.59
Port Hardy,75,CA,06-17-2020,76,50.7,-127.42,57.2,6.93
Salamiyah,0,SY,06-17-2020,28,35.01,37.05,84.47,21.18
Tornio,0,FI,06-17-2020,35,65.85,24.15,73.4,5.82
Januária,64,BR,06-17-2020,49,-15.48,-44.37,78.78,11.83
Mezen',5,RU,06-17-2020,59,65.85,44.24,46.04,9.26
Goderich,0,CA,06-17-2020,60,43.75,-81.72,73.0,2.84
Porbandar,7,IN,06-17-2020,77,21.64,69.61,86.09,10.67
Gorbatov,40,RU,06-17-2020,82,56.13,43.06,69.01,2.24
Lagoa,16,PT,06-17-2020,80,39.05,-27.98,63.21,11.32
Sørland,26,NO,06-17-2020,81,67.67,12.69,53.6,12.75
Margate,100,GB,06-17-2020,82,51.38,1.39,66.99,1.01
Zhob,0,PK,06-17-2020,11,31.34,69.45,88.7,4.09
Bom Jesus,23,BR,06-17-2020,41,-9.07,-44.36,87.96,11.01
Chernyshevskiy,25,RU,06-17-2020,62,63.01,112.47,49.86,2.51
Broken Hill,0,AU,06-17-2020,66,-31.95,141.43,48.2,6.93
Yuncheng,51,CN,06-17-2020,90,35.02,110.99,64.24,1.88
Whitehorse,20,CA,06-17-2020,71,60.72,-135.05,50.0,16.11
Akonolinga,90,CM,06-17-2020,91,3.77,12.25,76.71,1.92
Port Augusta,0,AU,06-17-2020,87,-32.5,137.77,48.0,5.82
Lanzhou,0,CN,06-17-2020,47,36.06,103.79,70.0,5.39
Portland,75,US,06-17-2020,82,45.52,-122.68,59.0,2.17
Staryy Nadym,96,RU,06-17-2020,53,65.61,72.68,47.71,8.88
Pecos,1,US,06-17-2020,38,31.42,-103.49,87.8,3.36
Dubrovnik,20,HR,06-17-2020,83,42.65,18.09,69.8,5.82
Sanmenxia,75,CN,06-17-2020,90,34.77,111.18,64.44,3.44
Dagua,75,CO,06-17-2020,78,3.66,-76.69,75.2,4.7
Tegul'det,0,RU,06-17-2020,77,57.31,88.17,52.74,5.68
Cockburn Town,40,TC,06-17-2020,66,21.46,-71.14,86.0,19.46
Xining,13,CN,06-17-2020,59,36.62,101.77,55.11,2.17
Richards Bay,100,ZA,06-17-2020,76,-28.78,32.04,62.4,4.76
Lata,0,PT,06-17-2020,56,40.16,-8.33,69.01,5.01
Polunochnoye,5,RU,06-17-2020,47,60.87,60.42,51.39,7.72
Ambanja,75,MG,06-17-2020,74,-13.68,48.45,77.0,2.24
Ermioni,12,GR,06-17-2020,42,37.39,23.24,84.0,1.97
Zile,75,TR,06-17-2020,72,40.3,35.89,64.4,9.17
Columbus,75,US,06-17-2020,41,39.96,-83.0,79.0,11.41
Vardø,55,NO,06-17-2020,70,70.37,31.11,48.2,14.99
Am Timan,60,TD,06-17-2020,50,11.03,20.28,87.75,7.92
Kidal,36,ML,06-17-2020,7,18.44,1.41,111.2,13.67
Redlands,90,US,06-17-2020,68,34.06,-117.18,68.0,3.36
Abalak,89,RU,06-17-2020,78,58.13,68.59,51.49,12.24
Soyo,1,AO,06-17-2020,79,-6.13,12.37,76.14,9.55
Valparaíso,90,CL,06-17-2020,100,-33.04,-71.63,51.8,9.17
Lodja,53,CD,06-17-2020,35,-3.48,23.43,81.12,0.76
Ucluelet,90,CA,06-17-2020,100,48.93,-125.55,55.99,2.24
Zapolyarnyy,0,RU,06-17-2020,47,69.42,30.81,55.4,12.75
Linjiang,94,CN,06-17-2020,85,41.81,126.91,58.98,2.44
Esim,95,GH,06-17-2020,82,4.87,-2.24,79.21,15.3
San Jose,5,US,06-17-2020,63,37.34,-121.89,66.0,5.17
Benxi,66,CN,06-17-2020,57,41.29,123.77,75.2,6.71
Dudinka,40,RU,06-17-2020,86,69.41,86.18,39.2,8.95
Humlebæk,74,DK,06-17-2020,66,55.96,12.53,73.0,5.01
Tabou,88,CI,06-17-2020,82,4.42,-7.35,79.48,13.94
Kumul,99,CN,06-17-2020,12,42.8,93.45,88.68,5.82
Vaitape,100,PF,06-17-2020,79,-16.52,-151.75,81.07,10.33
Codrington,44,AU,06-17-2020,85,-38.27,141.97,43.57,8.95
Caxito,20,AO,06-17-2020,78,-8.58,13.66,77.0,10.29
Kaitangata,94,NZ,06-17-2020,80,-46.28,169.85,43.0,4.0
Hervey Bay,0,AU,06-17-2020,77,-25.3,152.85,61.0,8.05
Vuktyl,85,RU,06-17-2020,65,63.86,57.31,46.8,11.21
DeKalb County,90,US,06-17-2020,77,33.75,-84.23,68.0,4.7
Takoradze,87,GH,06-17-2020,82,4.88,-1.76,79.52,15.77
Kangaatsiaq,91,GL,06-17-2020,88,68.31,-53.46,34.52,6.53
Bogotol,1,RU,06-17-2020,78,56.21,89.53,51.6,9.17
Saint-François,46,FR,06-17-2020,77,46.42,3.91,60.8,6.93
Pemba,90,MZ,06-17-2020,69,-12.97,40.52,77.0,12.75
Charters Towers,97,AU,06-17-2020,91,-20.1,146.27,62.58,9.37
Porto Murtinho,100,BR,06-17-2020,35,-21.7,-57.88,86.99,15.61
La Grande,75,US,06-17-2020,71,45.32,-118.09,51.8,16.11
Taber,90,CA,06-17-2020,87,49.82,-112.15,54.0,12.75
Safi,26,MA,06-17-2020,67,32.3,-9.24,73.83,22.5
Ogbomosho,57,NG,06-17-2020,67,8.13,4.25,84.99,8.39
Nago,75,JP,06-17-2020,88,26.59,127.98,82.4,16.11
Gamba,96,GA,06-17-2020,80,-2.65,10.0,76.05,7.34
Dunmore Town,0,BS,06-17-2020,78,25.5,-76.65,80.51,11.65
Bintulu,75,MY,06-17-2020,94,3.17,113.03,80.6,3.36
Opuwo,0,NA,06-17-2020,23,-18.06,13.84,73.96,11.52
Ojinaga,1,MX,06-17-2020,35,29.57,-104.42,86.0,5.82
Phan Thiet,36,VN,06-17-2020,86,10.93,108.1,79.43,1.45
Barra de Tecoanapa,43,MX,06-17-2020,61,16.52,-98.75,86.99,5.53
Piopio,100,NZ,06-17-2020,94,-38.47,175.02,52.0,4.54
Taoudenni,0,ML,06-17-2020,6,22.68,-3.98,112.96,18.19
Calca,5,PE,06-17-2020,34,-13.33,-71.95,64.4,5.82
Buñol,75,ES,06-17-2020,60,39.42,-0.78,75.99,16.11
Pingliang,0,CN,06-17-2020,67,35.54,106.69,58.96,4.16
Esplanada,53,BR,06-17-2020,68,-11.8,-37.95,79.29,10.36
Pimentel,58,PE,06-17-2020,64,-6.84,-79.93,71.6,12.75
Novopetrovskoye,62,RU,06-17-2020,44,55.99,36.47,80.6,8.95
Faratsiho,24,MG,06-17-2020,83,-19.4,46.95,48.15,8.41
Vāsudevanallūr,98,IN,06-17-2020,60,9.23,77.42,82.72,10.58
Udachny,59,RU,06-17-2020,44,66.42,112.4,57.2,4.47
Launceston,0,AU,06-17-2020,83,-41.45,147.17,35.01,1.3
Heraclea,73,TR,06-17-2020,25,37.51,34.05,79.77,9.13
Karlskrona,17,SE,06-17-2020,68,56.16,15.59,66.2,5.82
Sarh,20,TD,06-17-2020,88,9.14,18.39,73.4,3.38
San Julián,0,MX,06-17-2020,44,21.02,-102.17,71.85,7.31
Ust-Nera,37,RU,06-17-2020,59,64.57,143.2,58.86,4.14
Derzhavīnsk,54,KZ,06-17-2020,46,51.1,66.32,68.13,7.76
Zalţan,0,LY,06-17-2020,30,32.95,11.87,86.45,17.56
Fergus Falls,1,US,06-17-2020,54,46.28,-96.08,82.4,19.46
Ulladulla,90,AU,06-17-2020,87,-35.35,150.47,52.0,5.82
Gijang,100,KR,06-17-2020,83,35.24,129.21,69.8,5.82
Noril'sk,40,RU,06-17-2020,93,69.35,88.2,41.0,6.71
Iralaya,90,HN,06-17-2020,88,15.0,-83.23,78.8,8.05
Kununurra,0,AU,06-17-2020,39,-15.77,128.73,68.0,5.82
Manzhouli,75,CN,06-17-2020,83,49.6,117.43,60.12,1.79
Tarrafal,10,CV,06-17-2020,62,15.28,-23.77,86.0,4.7
Martin,40,US,06-17-2020,58,27.08,-80.42,86.0,9.17
São Gabriel da Cachoeira,90,BR,06-17-2020,88,-0.13,-67.09,77.0,4.7
Kharp,85,RU,06-17-2020,68,66.8,65.81,40.41,11.25
Bambanglipuro,66,ID,06-17-2020,86,-7.95,110.28,78.21,10.74
Laylay,100,PH,06-17-2020,84,13.44,121.82,82.0,1.99
Kargasok,0,RU,06-17-2020,68,59.06,80.86,58.5,9.82
Kailua,20,US,06-17-2020,46,21.4,-157.74,89.6,8.05
Sidi Ali,23,DZ,06-17-2020,62,36.1,0.42,72.79,10.78
Petukhovo,52,RU,06-17-2020,82,55.07,67.9,62.62,9.28
Yasugichō,75,JP,06-17-2020,88,35.43,133.25,68.0,3.36
Gilgit,43,PK,06-17-2020,22,35.92,74.31,79.39,5.14
Loei,100,TH,06-17-2020,100,17.42,101.5,65.34,3.29
Marzuq,73,YE,06-17-2020,18,14.4,46.47,92.41,3.67
Houma,1,US,06-17-2020,58,29.6,-90.72,87.01,3.36
Gilbués,0,BR,06-17-2020,40,-9.83,-45.34,85.17,13.33
Hays,47,US,06-17-2020,56,30.05,-98.03,84.0,1.01
Grenå,40,DK,06-17-2020,53,56.42,10.88,75.2,9.17
Agirish,79,RU,06-17-2020,48,61.92,63.02,50.32,8.3
Guarapari,40,BR,06-17-2020,88,-20.67,-40.5,69.8,4.7
Machiques,65,VE,06-17-2020,64,10.06,-72.55,86.95,2.42
Tarko-Sale,100,RU,06-17-2020,68,64.92,77.78,48.0,9.8
Lovozero,0,RU,06-17-2020,45,68.0,35.01,57.65,9.26
Eidfjord,99,NO,06-17-2020,55,60.47,7.07,68.0,3.0
Kāzerūn,0,IR,06-17-2020,12,29.62,51.65,89.28,4.41
Dakar,0,SN,06-17-2020,74,14.69,-17.44,86.0,6.93
Shubarshi,0,KZ,06-17-2020,28,48.59,57.19,76.39,7.47
Sitrah,0,BH,06-17-2020,39,26.15,50.62,95.0,14.99
Beeskow,96,DE,06-17-2020,37,52.17,14.25,84.0,6.93
Jumla,33,NP,06-17-2020,72,29.27,82.18,63.43,2.59
Husavik,9,IS,06-17-2020,58,66.04,-17.34,57.2,5.82
Lafiagi,55,NG,06-17-2020,50,8.87,5.42,92.39,5.37
Nabire,100,ID,06-17-2020,84,-3.37,135.48,76.46,3.18
Florianópolis,75,BR,06-17-2020,73,-27.61,-48.5,73.4,18.34
Kemin,58,KG,06-17-2020,58,42.78,75.69,55.24,2.89
Novyye Burasy,95,RU,06-17-2020,81,52.13,46.07,70.77,3.71
Coolum Beach,18,AU,06-17-2020,87,-26.53,153.1,62.01,1.99
Beringovskiy,0,RU,06-17-2020,72,63.05,179.32,47.32,3.18
Port Lincoln,0,AU,06-17-2020,62,-34.73,135.87,57.0,15.41
Klaksvík,90,FO,06-17-2020,81,62.23,-6.59,53.6,13.87
Roald,49,NO,06-17-2020,72,62.58,6.13,70.0,6.93
Kattivākkam,40,IN,06-17-2020,74,13.22,80.32,89.01,9.17
Pushkino,100,RU,06-17-2020,44,56.02,37.87,87.01,8.95
Bongandanga,85,CD,06-17-2020,56,1.5,21.05,84.02,1.45
Mthatha,28,ZA,06-17-2020,66,-31.59,28.78,51.8,3.36
Alice Town,52,BS,06-17-2020,77,25.72,-79.3,80.8,13.6
Kutum,87,SD,06-17-2020,11,14.2,24.67,93.74,8.48
Maragogi,23,BR,06-17-2020,75,-9.01,-35.22,79.48,16.6
